timestamp,city,country,latitude,longitude,temperature_C,feels_like_C,min_temp_C,max_temp_C,pressure_hPa,humidity_%,wind_speed_m/s,wind_direction_deg,wind_gust_m/s,cloud_coverage_%,weather_main,weather_description,visibility_m,sunrise_utc,sunset_utc
2025-04-06 12:36:27,London,GB,51.5085,-0.1257,14.12,12.74,14.12,14.12,1023,44,5.64,79,7.38,57,Clouds,broken clouds,10000,2025-04-06 10:54:12,2025-04-07 00:11:11
2025-04-06 12:36:27,Chennai,IN,13.0878,80.2785,29.38,33.78,29.38,29.38,1008,71,6.13,93,7.6,33,Clouds,scattered clouds,10000,2025-04-06 06:01:41,2025-04-06 18:20:35
2025-04-06 12:36:27,New York,US,40.7143,-74.006,11.63,11.25,11.63,11.63,1009,92,1.56,232,3.47,100,Clouds,overcast clouds,10000,2025-04-06 16:00:52,2025-04-07 04:55:26
2025-04-06 12:36:27,Kandy,LK,7.2955,80.6356,22.37,23.14,22.37,22.37,1011,95,1.3,257,1.14,100,Rain,moderate rain,10000,2025-04-06 06:03:02,2025-04-06 18:16:23
2025-04-06 12:36:27,Colombo,LK,6.9319,79.8478,28.39,32.92,28.39,28.39,1009,79,3.44,249,3.82,100,Clouds,overcast clouds,10000,2025-04-06 06:06:21,2025-04-06 18:19:22
